,ST,IATA,S/L,Hub,CY15enplane,Name,City,Country,Latitude,Longitude,Altitude,Timezone,PercentArrDel15,TaxiIn,ArrDelay,ArrNum,PercentCancelled,TaxiOut,DepDelay,DepNum
0,CA,LAX,P,L,36351272,Los Angeles International Airport,Los Angeles,United States,33.94250107,-118.4079971,125.0,-8,28.2127031019,9.0,-2.0,1355,0.0738007380074,15.0,3.0,1355
1,IL,ORD,P,L,36305668,Chicago O'Hare International Airport,Chicago,United States,41.97859955,-87.90480042,672.0,-6,36.1607142857,14.0,5.0,687,2.05128205128,18.0,0.0,780
2,TX,DFW,P,L,31589839,Dallas Fort Worth International Airport,Dallas-Fort Worth,United States,32.8968009949,-97.0380020142,607.0,-6,17.9640718563,8.0,-11.0,171,0.584795321637,17.0,1.0,171
3,NY,JFK,P,L,27782369,John F Kennedy International Airport,New York,United States,40.63980103,-73.77890015,13.0,-5,29.935097354,6.0,-3.0,10269,1.96920873613,24.0,0.0,11172
4,CO,DEN,P,L,26280043,Denver International Airport,Denver,United States,39.8616981506,-104.672996521,5431.0,-7,38.3900928793,7.0,3.0,325,1.23076923077,14.0,10.0,325
5,CA,SFO,P,L,24190560,San Francisco International Airport,San Francisco,United States,37.6189994812,-122.375,13.0,-8,26.8090971744,9.0,-3.0,1457,0.549450549451,17.0,0.0,1456
6,NC,CLT,P,L,21913166,Charlotte Douglas International Airport,Charlotte,United States,35.2140007019,-80.9430999756,748.0,-5,17.2011661808,6.0,-8.0,359,3.3426183844,16.0,-3.0,359
7,NV,LAS,P,L,21857693,McCarran International Airport,Las Vegas,United States,36.08010101,-115.1520004,2181.0,-8,27.3029045643,7.0,-4.0,1211,0.825763831544,15.0,5.0,1211
8,AZ,PHX,P,L,21351504,Phoenix Sky Harbor International Airport,Phoenix,United States,33.434299469,-112.012001038,1135.0,-7,33.3333333333,4.0,-2.5,184,1.08695652174,14.0,9.0,184
9,WA,SEA,P,L,20148980,Seattle Tacoma International Airport,Seattle,United States,47.4490013123,-122.308998108,433.0,-8,30.0771208226,8.0,1.0,780,0.12836970475,16.0,5.0,779
10,FL,MCO,P,L,18759938,Orlando International Airport,Orlando,United States,28.4293994904,-81.3089981079,96.0,-5,29.7158826269,10.0,-1.0,4380,1.46350500185,14.0,1.0,5398
11,NJ,EWR,P,L,18684818,Newark Liberty International Airport,Newark,United States,40.6925010681,-74.1687011719,18.0,-5,37.9330254042,7.0,2.0,1800,3.0565461029,18.0,0.0,1963
12,MA,BOS,P,L,16290362,General Edward Lawrence Logan International Airport,Boston,United States,42.36429977,-71.00520325,20.0,-5,25.2208835341,6.0,-4.0,11334,0.871124775813,17.0,-1.0,11709
13,MI,DTW,P,L,16255520,Detroit Metropolitan Wayne County Airport,Detroit,United States,42.2123985291,-83.3534011841,645.0,-5,27.868852459,7.0,-4.5,366,0.546448087432,13.0,-4.0,366
14,PA,PHL,P,L,15101349,Philadelphia International Airport,Philadelphia,United States,39.8718986511,-75.2410964966,36.0,-5,22.6168224299,6.0,-8.0,548,2.18579234973,19.0,-6.0,549
15,NY,LGA,P,L,14319924,La Guardia Airport,New York,United States,40.77719879,-73.87259674,21.0,-5,36.7398119122,6.0,1.0,1655,2.71903323263,21.0,0.0,1655
16,FL,FLL,P,L,13061632,Fort Lauderdale Hollywood International Airport,Fort Lauderdale,United States,26.072599411,-80.1527023315,9.0,-5,30.3191489362,5.0,-1.0,4582,1.20345994735,14.0,2.0,5318
17,MD,BWI,P,L,11738845,Baltimore/Washington International Thurgood Marshall Airport,Baltimore,United States,39.17539978,-76.66829681,146.0,-5,23.6057068742,6.0,-3.0,783,1.53256704981,14.0,-4.0,783
18,VA,DCA,P,L,11242375,Ronald Reagan Washington National Airport,Washington,United States,38.8521,-77.037697,15.0,-5,22.5980015373,3.0,-7.0,2633,1.1376146789,14.0,-4.0,2725
19,UT,SLC,P,L,10634538,Salt Lake City International Airport,Salt Lake City,United States,40.7883987427,-111.977996826,4227.0,-7,31.1965811966,4.0,-1.0,470,0.851063829787,14.0,5.0,470
20,VA,IAD,P,L,10363974,Washington Dulles International Airport,Washington,United States,38.94449997,-77.45580292,312.0,-5,22.3300970874,4.0,-8.0,533,3.56472795497,14.0,-4.0,533
21,CA,SAN,P,L,9985763,San Diego International Airport,San Diego,United States,32.7336006165,-117.190002441,17.0,-8,21.9178082192,4.0,-7.0,438,0.228310502283,16.0,0.0,438
22,FL,TPA,P,L,9150458,Tampa International Airport,Tampa,United States,27.9755001068,-82.533203125,26.0,-5,29.6617519514,4.0,-2.0,1183,1.54169586545,13.0,-1.0,1427
23,OR,PDX,P,L,8340252,Portland International Airport,Portland,United States,45.58869934,-122.5979996,31.0,-8,22.9452054795,4.0,-3.0,587,0.681431005111,13.0,-1.0,587
24,TX,HOU,P,M,5937990,William P Hobby Airport,Houston,United States,29.64539909,-95.27890015,46.0,-6,33.8888888889,6.0,-2.5,184,1.63043478261,12.0,16.5,184
25,TX,AUS,P,M,5797562,Austin Bergstrom International Airport,Austin,United States,30.1944999695,-97.6698989868,542.0,-6,30.0986842105,5.0,0.0,611,0.490998363339,12.0,2.0,611
26,TN,BNA,P,M,5715205,Nashville International Airport,Nashville,United States,36.1245002747,-86.6781997681,599.0,-6,30.1818181818,6.0,-4.0,276,0.724637681159,12.0,1.0,276
27,CA,OAK,P,M,5506687,Metropolitan Oakland International Airport,Oakland,United States,37.7212982178,-122.221000671,9.0,-8,21.9565217391,5.0,-4.5,466,1.07296137339,11.0,-1.0,466
28,LA,MSY,P,M,5329711,Louis Armstrong New Orleans International Airport,New Orleans,United States,29.9934005737,-90.2580032349,4.0,-6,24.6710526316,4.0,-10.0,305,1.30718954248,11.0,0.0,306
29,NC,RDU,P,M,4954735,Raleigh Durham International Airport,Raleigh-durham,United States,35.8776016235,-78.7874984741,435.0,-5,20.7880434783,5.0,-5.0,747,1.33689839572,14.0,-1.0,748
30,CA,SJC,P,M,4822480,Norman Y. Mineta San Jose International Airport,San Jose,United States,37.3625984192,-121.929000854,62.0,-8,38.3333333333,3.0,3.5,184,1.63043478261,11.0,12.0,184
31,CA,SMF,P,M,4714729,Sacramento International Airport,Sacramento,United States,38.695400238,-121.591003418,27.0,-8,24.9230769231,4.0,-3.0,327,0.917431192661,10.0,2.0,327
32,FL,RSW,P,M,4159215,Southwest Florida International Airport,Fort Myers,United States,26.5361995697,-81.7552032471,30.0,-5,24.0135287486,4.0,-4.0,909,2.20264317181,11.0,0.5,908
33,OH,CLE,P,M,3916922,Cleveland Hopkins International Airport,Cleveland,United States,41.4117012024,-81.8498001099,791.0,-5,23.8356164384,6.0,-7.0,366,0.273224043716,11.0,-1.0,366
34,PA,PIT,P,M,3890681,Pittsburgh International Airport,Pittsburgh,United States,40.49150085,-80.23290253,1203.0,-5,18.4510250569,5.0,-6.0,445,1.12359550562,10.0,-4.0,445
35,FL,PBI,P,M,3113591,Palm Beach International Airport,West Palm Beach,United States,26.6832008362,-80.0955963135,19.0,-5,25.5479452055,3.0,-6.0,1487,1.88172043011,11.0,0.0,1488
36,CT,BDL,P,M,2926054,Bradley International Airport,Windsor Locks,United States,41.9388999939,-72.6831970215,173.0,-5,25.3918495298,5.0,-3.0,645,0.731707317073,13.0,-2.0,820
37,FL,JAX,P,M,2716473,Jacksonville International Airport,Jacksonville,United States,30.4941005707,-81.6878967285,30.0,-5,27.3942093541,5.0,-4.0,914,1.75054704595,11.0,-3.0,914
38,AK,ANC,P,M,2525893,Ted Stevens Anchorage International Airport,Anchorage,United States,61.1744003296,-149.996002197,152.0,-9,18.2156133829,4.0,-6.0,269,0.0,12.0,-4.0,270
39,NY,BUF,P,M,2336431,Buffalo Niagara International Airport,Buffalo,United States,42.94049835,-78.73220062,728.0,-5,19.0199335548,3.0,-6.0,1232,2.27457351747,10.0,-6.0,1231
40,NM,ABQ,P,M,2323883,Albuquerque International Sunport Airport,Albuquerque,United States,35.0401992798,-106.60900116,5355.0,-7,42.2222222222,6.0,4.0,92,2.17391304348,10.0,12.0,92
41,CA,BUR,P,S,1973897,Bob Hope Airport,Burbank,United States,34.2006988525,-118.35900116,778.0,-8,34.4444444444,3.0,0.0,92,1.0989010989,15.0,5.0,91
42,RI,PVD,P,S,1763676,Theodore Francis Green State Airport,Providence,United States,41.7326011658,-71.4204025269,55.0,-5,16.7910447761,4.0,-5.0,273,2.1978021978,10.0,-4.0,273
43,VA,RIC,P,S,1740391,Richmond International Airport,Richmond,United States,37.5051994324,-77.3197021484,167.0,-5,24.1987179487,4.0,-3.0,627,0.797448165869,10.0,-3.0,627
44,SC,CHS,P,S,1669988,Charleston Air Force Base-International Airport,Charleston,United States,32.89860153,-80.04049683,46.0,-5,18.998716303,5.0,-10.0,790,1.39064475348,13.0,-2.0,791
45,NV,RNO,P,S,1669876,Reno Tahoe International Airport,Reno,United States,39.4990997314,-119.767997742,4415.0,-8,33.6448598131,5.0,3.0,109,1.83486238532,12.0,8.0,109
46,NY,ALB,P,S,1276793,Albany International Airport,Albany,United States,42.748298645,-73.8016967773,285.0,-5,34.7826086957,3.0,3.5,184,0.0,10.0,5.0,184
47,CA,LGB,P,S,1220937,Long Beach /Daugherty Field/ Airport,Long Beach,United States,33.81769943,-118.1520004,60.0,-8,18.324829932,3.0,-4.0,2369,0.337695230055,11.0,-3.0,2369
48,NY,ROC,P,S,1177994,Greater Rochester International Airport,Rochester,United States,43.1189002991,-77.6724014282,559.0,-5,25.5474452555,4.0,-2.5,289,5.19031141869,10.0,-5.0,289
49,NY,SYR,P,S,987732,Syracuse Hancock International Airport,Syracuse,United States,43.1111984253,-76.106300354,421.0,-5,33.8108882521,3.0,0.0,368,4.89130434783,12.0,-7.0,368
50,GA,SAV,P,S,980531,Savannah Hilton Head International Airport,Savannah,United States,32.12760162,-81.20210266,50.0,-5,23.7588652482,4.0,-8.0,287,1.393728223,12.0,0.0,287
51,ME,PWM,P,S,858449,Portland International Jetport Airport,Portland,United States,43.64619827,-70.30930328,76.0,-5,26.8518518519,3.0,-1.0,336,3.57142857143,11.0,-6.0,336
52,NY,HPN,P,S,757466,Westchester County Airport,White Plains,United States,41.0670013428,-73.7076034546,439.0,-5,29.2878635908,5.0,-1.0,1012,1.08695652174,13.0,0.0,1012
53,FL,SRQ,P,S,607449,Sarasota Bradenton International Airport,Sarasota,United States,27.3953990936,-82.554397583,30.0,-5,22.8260869565,4.0,-9.5,92,1.08695652174,11.0,13.0,92
54,VT,BTV,P,S,581143,Burlington International Airport,Burlington,United States,44.4719009399,-73.1532974243,335.0,-5,22.3048327138,4.0,-5.0,276,3.26086956522,12.0,-5.0,276
55,FL,DAB,P,N,306360,Daytona Beach International Airport,Daytona Beach,United States,29.179899,-81.058098,34.0,-5,30.4347826087,3.0,-3.0,92,0.0,13.0,0.0,92
56,MA,ACK,P,N,155952,Nantucket Memorial Airport,Nantucket,United States,41.25310135,-70.06020355,47.0,-5,16.2227602906,5.0,-7.0,418,0.717703349282,12.0,-1.0,418
57,NY,SWF,P,N,142603,Stewart International Airport,Newburgh,United States,41.5041007996,-74.1047973633,491.0,-5,36.8131868132,6.0,7.0,184,1.08695652174,11.0,-4.5,184
