,ST,IATA,S/L,Hub,CY15enplane,Name,City,Country,Latitude,Longitude,Altitude,Timezone,PercentArrDel15,TaxiIn,ArrDelay,ArrNum,PercentCancelled,TaxiOut,DepDelay,DepNum
0,GA,ATL,P,L,49340732,Hartsfield Jackson Atlanta International Airport,Atlanta,United States,33.6366996765,-84.4281005859,1026.0,-5,16.5797317437,8.0,-5.0,2713,1.14180478821,16.0,-4.0,2715
1,CA,LAX,P,L,36351272,Los Angeles International Airport,Los Angeles,United States,33.94250107,-118.4079971,125.0,-8,22.1999154691,10.0,-6.0,9598,1.09375,18.0,-2.0,9600
2,IL,ORD,P,L,36305668,Chicago O'Hare International Airport,Chicago,United States,41.97859955,-87.90480042,672.0,-6,17.5142066152,11.0,-9.0,14065,2.17821782178,14.0,-1.0,14140
3,TX,DFW,P,L,31589839,Dallas Fort Worth International Airport,Dallas-Fort Worth,United States,32.8968009949,-97.0380020142,607.0,-6,13.5348656948,10.0,-8.0,33880,0.802123439505,15.0,-2.0,34284
4,NY,JFK,P,L,27782369,John F Kennedy International Airport,New York,United States,40.63980103,-73.77890015,13.0,-5,21.6749940519,8.0,-7.0,4376,3.515625,22.0,-2.0,4608
5,CO,DEN,P,L,26280043,Denver International Airport,Denver,United States,39.8616981506,-104.672996521,5431.0,-7,19.4202898551,8.0,-3.0,2446,1.4303228443,14.0,-3.0,2447
6,CA,SFO,P,L,24190560,San Francisco International Airport,San Francisco,United States,37.6189994812,-122.375,13.0,-8,29.4181620446,5.0,-1.0,3748,1.67955211943,16.0,-3.0,3751
7,NC,CLT,P,L,21913166,Charlotte Douglas International Airport,Charlotte,United States,35.2140007019,-80.9430999756,748.0,-5,14.3857782507,8.0,-6.0,23274,2.72350503256,18.0,-2.0,23646
8,NV,LAS,P,L,21857693,McCarran International Airport,Las Vegas,United States,36.08010101,-115.1520004,2181.0,-8,19.0055248619,7.0,-5.0,3662,1.09289617486,16.0,-3.0,3660
9,AZ,PHX,P,L,21351504,Phoenix Sky Harbor International Airport,Phoenix,United States,33.434299469,-112.012001038,1135.0,-7,15.0456557831,6.0,-6.0,14637,0.745146294777,16.0,-3.0,14628
10,FL,MIA,P,L,20986349,Miami International Airport,Miami,United States,25.7931995392,-80.2906036377,8.0,-5,23.0681261232,8.0,-3.0,12473,1.3094975355,18.0,-1.0,13593
11,TX,IAH,P,L,20595881,George Bush Intercontinental Houston Airport,Houston,United States,29.9843997955,-95.3414001465,97.0,-6,17.2892209178,8.0,-7.0,1896,1.00158144439,15.0,-5.0,1897
12,WA,SEA,P,L,20148980,Seattle Tacoma International Airport,Seattle,United States,47.4490013123,-122.308998108,433.0,-8,25.2608456892,9.0,-2.0,1855,1.45474137931,16.0,-3.0,1856
13,FL,MCO,P,L,18759938,Orlando International Airport,Orlando,United States,28.4293994904,-81.3089981079,96.0,-5,21.4877789586,9.0,-2.0,4783,1.69420623301,15.0,-2.0,4781
14,NJ,EWR,P,L,18684818,Newark Liberty International Airport,Newark,United States,40.6925010681,-74.1687011719,18.0,-5,25.3223310985,7.0,-2.0,2026,4.39072520967,17.0,-3.0,2027
15,MN,MSP,P,L,17634273,Minneapolis-St Paul International/Wold-Chamberlain Airport,Minneapolis,United States,44.8819999695,-93.2218017578,841.0,-6,19.605077574,5.0,-4.0,2161,2.12864414623,18.0,-3.0,2161
16,MA,BOS,P,L,16290362,General Edward Lawrence Logan International Airport,Boston,United States,42.36429977,-71.00520325,20.0,-5,17.5183673469,6.0,-7.0,6348,3.6716041601,17.0,-4.0,6346
17,MI,DTW,P,L,16255520,Detroit Metropolitan Wayne County Airport,Detroit,United States,42.2123985291,-83.3534011841,645.0,-5,19.4920259894,10.0,-4.0,1724,1.91304347826,16.0,-3.0,1725
18,PA,PHL,P,L,15101349,Philadelphia International Airport,Philadelphia,United States,39.8718986511,-75.2410964966,36.0,-5,14.9320804821,5.0,-9.0,10115,2.72536687631,18.0,-3.0,10494
19,NY,LGA,P,L,14319924,La Guardia Airport,New York,United States,40.77719879,-73.87259674,21.0,-5,24.275106082,6.0,-4.0,6005,5.62676876977,20.0,-3.0,6007
20,FL,FLL,P,L,13061632,Fort Lauderdale Hollywood International Airport,Fort Lauderdale,United States,26.072599411,-80.1527023315,9.0,-5,17.7391304348,5.0,-6.0,2343,1.96245733788,14.0,-4.0,2344
21,MD,BWI,P,L,11738845,Baltimore/Washington International Thurgood Marshall Airport,Baltimore,United States,39.17539978,-76.66829681,146.0,-5,15.9211523882,6.0,-5.0,1368,3.72262773723,14.0,-3.0,1370
22,VA,DCA,P,L,11242375,Ronald Reagan Washington National Airport,Washington,United States,38.8521,-77.037697,15.0,-5,18.0052412517,5.0,-5.0,6900,5.72795823666,18.0,-3.0,6896
23,UT,SLC,P,L,10634538,Salt Lake City International Airport,Salt Lake City,United States,40.7883987427,-111.977996826,4227.0,-7,19.7552447552,6.0,-2.0,1152,1.04529616725,17.0,-4.0,1148
24,VA,IAD,P,L,10363974,Washington Dulles International Airport,Washington,United States,38.94449997,-77.45580292,312.0,-5,18.7908496732,6.0,-5.0,642,4.36817472699,16.0,-3.0,641
25,CA,SAN,P,L,9985763,San Diego International Airport,San Diego,United States,32.7336006165,-117.190002441,17.0,-8,19.4829178209,3.0,-3.0,2193,1.13895216401,16.0,-4.0,2195
26,HI,HNL,P,L,9479094,Honolulu International Airport,Honolulu,United States,21.3187007904,-157.92199707,13.0,-10,35.8974358974,5.0,2.0,704,0.426136363636,19.0,-5.0,704
27,FL,TPA,P,L,9150458,Tampa International Airport,Tampa,United States,27.9755001068,-82.533203125,26.0,-5,18.7770023264,4.0,-4.0,3058,1.66666666667,12.0,-4.0,3060
28,OR,PDX,P,L,8340252,Portland International Airport,Portland,United States,45.58869934,-122.5979996,31.0,-8,22.2088835534,4.0,-2.0,843,0.948991696323,13.0,-3.0,843
29,MO,STL,P,M,6239248,Lambert St Louis International Airport,St. Louis,United States,38.7486991882,-90.3700027466,618.0,-6,16.9482846902,4.0,-6.0,1974,1.11392405063,12.0,-4.0,1975
30,TX,HOU,P,M,5937990,William P Hobby Airport,Houston,United States,29.64539909,-95.27890015,46.0,-6,0.0,11.0,-5.0,1,0.0,12.0,6.0,1
31,TX,AUS,P,M,5797562,Austin Bergstrom International Airport,Austin,United States,30.1944999695,-97.6698989868,542.0,-6,14.7994467497,5.0,-7.0,2188,1.00594421582,12.0,-5.0,2187
32,TN,BNA,P,M,5715205,Nashville International Airport,Nashville,United States,36.1245002747,-86.6781997681,599.0,-6,16.974789916,6.0,-5.0,1218,2.21493027071,14.0,-3.0,1219
33,CA,OAK,P,M,5506687,Metropolitan Oakland International Airport,Oakland,United States,37.7212982178,-122.221000671,9.0,-8,24.6376811594,5.0,0.0,207,0.48309178744,13.0,-5.0,207
34,LA,MSY,P,M,5329711,Louis Armstrong New Orleans International Airport,New Orleans,United States,29.9934005737,-90.2580032349,4.0,-6,16.6397415186,4.0,-6.0,1251,0.798722044728,12.0,-5.0,1252
35,MO,MCI,P,M,5135127,Kansas City International Airport,Kansas City,United States,39.2976,-94.713898,1026.0,-6,15.4213036566,6.0,-6.0,1280,2.26385636222,14.0,-5.0,1281
36,NC,RDU,P,M,4954735,Raleigh Durham International Airport,Raleigh-durham,United States,35.8776016235,-78.7874984741,435.0,-5,18.8610240334,4.0,-4.0,1969,3.0487804878,15.0,-2.0,1968
37,CA,SNA,P,M,4945209,John Wayne Airport-Orange County Airport,Santa Ana,United States,33.67570114,-117.8679962,56.0,-8,14.5848375451,5.0,-4.0,1404,0.497159090909,13.0,-4.0,1408
38,CA,SJC,P,M,4822480,Norman Y. Mineta San Jose International Airport,San Jose,United States,37.3625984192,-121.929000854,62.0,-8,20.2294056309,4.0,-3.0,961,0.208333333333,13.0,-4.0,960
39,CA,SMF,P,M,4714729,Sacramento International Airport,Sacramento,United States,38.695400238,-121.591003418,27.0,-8,21.1382113821,5.0,0.0,863,0.348027842227,12.0,-2.0,862
40,FL,RSW,P,M,4159215,Southwest Florida International Airport,Fort Myers,United States,26.5361995697,-81.7552032471,30.0,-5,18.5,4.0,-4.0,1430,1.8156424581,12.0,-4.0,1432
41,TX,SAT,P,M,4091434,San Antonio International Airport,San Antonio,United States,29.533700943,-98.4698028564,809.0,-6,12.3620309051,4.0,-7.0,1366,0.732600732601,12.0,-5.0,1365
42,OH,CLE,P,M,3916922,Cleveland Hopkins International Airport,Cleveland,United States,41.4117012024,-81.8498001099,791.0,-5,16.0344827586,8.0,-4.0,587,1.19250425894,13.0,-3.0,587
43,PA,PIT,P,M,3890681,Pittsburgh International Airport,Pittsburgh,United States,40.49150085,-80.23290253,1203.0,-5,13.3138258961,5.0,-7.0,1391,1.79856115108,13.0,-5.0,1390
44,IN,IND,P,M,3889567,Indianapolis International Airport,Indianapolis,United States,39.7173,-86.294403,797.0,-5,16.9584245077,6.0,-5.0,924,1.40388768898,14.0,-5.0,926
45,OH,CMH,P,M,3312496,Port Columbus International Airport,Columbus,United States,39.9980010986,-82.8918991089,815.0,-5,14.8148148148,6.0,-7.0,570,0.701754385965,14.0,-4.0,570
46,WI,MKE,P,M,3229897,General Mitchell International Airport,Milwaukee,United States,42.9472007751,-87.8965988159,723.0,-6,11.6402116402,4.0,-8.0,381,0.785340314136,14.0,-4.0,382
47,HI,OGG,P,M,3220753,Kahului Airport,Kahului,United States,20.8985996246,-156.429992676,54.0,-10,36.5426695842,5.0,4.0,460,0.0,13.0,-4.0,460
48,FL,PBI,P,M,3113591,Palm Beach International Airport,West Palm Beach,United States,26.6832008362,-80.0955963135,19.0,-5,21.1209842789,5.0,-5.0,1498,2.26817878586,12.0,-4.0,1499
49,CT,BDL,P,M,2926054,Bradley International Airport,Windsor Locks,United States,41.9388999939,-72.6831970215,173.0,-5,17.396593674,5.0,-5.0,837,2.03106332139,14.0,-3.0,837
50,FL,JAX,P,M,2716473,Jacksonville International Airport,Jacksonville,United States,30.4941005707,-81.6878967285,30.0,-5,15.8129175947,5.0,-7.0,915,2.28758169935,13.0,-4.0,918
51,AK,ANC,P,M,2525893,Ted Stevens Anchorage International Airport,Anchorage,United States,61.1744003296,-149.996002197,152.0,-9,13.5593220339,4.0,-21.0,60,3.27868852459,12.0,-5.5,61
52,NY,BUF,P,M,2336431,Buffalo Niagara International Airport,Buffalo,United States,42.94049835,-78.73220062,728.0,-5,15.8620689655,3.0,-7.0,298,3.34448160535,14.0,-3.0,299
53,NM,ABQ,P,M,2323883,Albuquerque International Sunport Airport,Albuquerque,United States,35.0401992798,-106.60900116,5355.0,-7,17.7057356608,5.0,-6.0,403,0.497512437811,12.0,-5.0,402
54,CA,ONT,P,M,2089801,Ontario International Airport,Ontario,United States,34.0559997559,-117.600997925,944.0,-8,15.0943396226,6.0,-5.0,638,0.470957613815,12.0,-3.0,637
55,NE,OMA,P,M,2046179,Eppley Airfield,Omaha,United States,41.3031997681,-95.8940963745,984.0,-6,13.1578947368,5.0,-8.0,461,1.52173913043,14.0,-6.0,460
56,TN,MEM,P,S,1873716,Memphis International Airport,Memphis,United States,35.0424003601,-89.9766998291,341.0,-6,14.4124168514,5.0,-8.0,459,1.73913043478,16.0,-4.0,460
57,OK,OKC,P,S,1803188,Will Rogers World Airport,Oklahoma City,United States,35.3931007385,-97.6007003784,1295.0,-6,14.849187935,5.0,-5.0,431,0.0,14.0,-5.0,429
58,RI,PVD,P,S,1763676,Theodore Francis Green State Airport,Providence,United States,41.7326011658,-71.4204025269,55.0,-5,11.6504854369,4.0,-5.0,424,3.05882352941,13.0,-4.0,425
59,VA,RIC,P,S,1740391,Richmond International Airport,Richmond,United States,37.5051994324,-77.3197021484,167.0,-5,17.816091954,5.0,-4.0,542,3.87453874539,17.0,-4.0,542
60,SC,CHS,P,S,1669988,Charleston Air Force Base-International Airport,Charleston,United States,32.89860153,-80.04049683,46.0,-5,16.1016949153,7.0,-3.0,122,2.45901639344,15.0,-5.0,122
61,NV,RNO,P,S,1669876,Reno Tahoe International Airport,Reno,United States,39.4990997314,-119.767997742,4415.0,-8,17.6991150442,5.0,-4.0,457,0.879120879121,13.0,-4.0,455
62,KY,SDF,P,S,1640297,Louisville International Standiford Field,Louisville,United States,38.1744,-85.736,501.0,-5,12.8205128205,7.0,-6.0,78,0.0,13.0,-1.5,78
63,AZ,TUS,P,S,1549253,Tucson International Airport,Tucson,United States,32.1161003113,-110.941001892,2643.0,-7,17.7295918367,4.0,-6.5,788,1.1421319797,12.0,-5.0,788
64,WA,GEG,P,S,1515351,Spokane International Airport,Spokane,United States,47.6198997498,-117.533996582,2376.0,-8,14.2857142857,4.0,-7.0,113,0.892857142857,19.0,-6.0,112
65,VA,ORF,P,S,1515200,Norfolk International Airport,Norfolk,United States,36.8945999146,-76.2012023926,26.0,-5,14.7806004619,4.0,-5.0,448,2.90178571429,14.0,-4.0,448
66,HI,LIH,P,S,1491688,Lihue Airport,Lihue,United States,21.9759998322,-159.339004517,153.0,-10,33.6405529954,5.0,1.0,219,0.913242009132,12.0,-8.0,219
67,ID,BOI,P,S,1487777,Boise Air Terminal/Gowen field,Boise,United States,43.56439972,-116.2229996,2871.0,-7,15.7894736842,4.0,-4.0,229,1.31004366812,17.0,-4.0,229
68,HI,KOA,P,S,1485777,Kona International At Keahole Airport,Kona,United States,19.7388000488,-156.046005249,47.0,-10,32.1428571429,4.0,0.0,224,0.446428571429,12.0,-4.0,224
69,TX,ELP,P,S,1381392,El Paso International Airport,El Paso,United States,31.80719948,-106.3779984,3959.0,-7,15.8823529412,3.5,-5.0,341,0.293255131965,13.0,-5.0,341
70,OK,TUL,P,S,1359582,Tulsa International Airport,Tulsa,United States,36.1983985901,-95.8880996704,677.0,-6,15.3963414634,4.0,-6.0,658,0.152207001522,13.0,-4.0,657
71,AL,BHM,P,S,1325897,Birmingham-Shuttlesworth International Airport,Birmingham,United States,33.56290054,-86.75350189,650.0,-6,0.0,3.5,-1.5,2,0.0,25.5,0.0,2
72,NY,ALB,P,S,1276793,Albany International Airport,Albany,United States,42.748298645,-73.8016967773,285.0,-5,12.8755364807,3.0,-6.0,240,2.91666666667,12.0,-4.0,240
73,NY,ROC,P,S,1177994,Greater Rochester International Airport,Rochester,United States,43.1189002991,-77.6724014282,559.0,-5,19.1358024691,6.0,-4.5,167,3.59281437126,13.0,-2.0,167
74,IA,DSM,P,S,1156462,Des Moines International Airport,Des Moines,United States,41.5340003967,-93.6631011963,958.0,-6,10.3448275862,5.0,-7.5,349,1.14613180516,12.0,-4.5,349
75,OH,DAY,P,S,1041759,James M Cox Dayton International Airport,Dayton,United States,39.9024009705,-84.2193984985,1009.0,-5,20.245398773,5.0,-7.0,164,0.609756097561,15.0,-4.0,164
76,NY,SYR,P,S,987732,Syracuse Hancock International Airport,Syracuse,United States,43.1111984253,-76.106300354,421.0,-5,19.3333333333,4.0,-3.5,153,2.61437908497,14.0,-3.0,153
77,GA,SAV,P,S,980531,Savannah Hilton Head International Airport,Savannah,United States,32.12760162,-81.20210266,50.0,-5,33.3333333333,6.0,-9.0,3,0.0,12.0,-9.0,3
78,CA,PSP,P,S,947728,Palm Springs International Airport,Palm Springs,United States,33.82970047,-116.507003784,477.0,-8,17.6623376623,6.0,-6.0,390,1.53846153846,13.0,-3.0,390
79,ME,PWM,P,S,858449,Portland International Jetport Airport,Portland,United States,43.64619827,-70.30930328,76.0,-5,14.7826086957,3.0,-6.0,119,5.04201680672,21.0,-2.0,119
80,NC,GSO,P,S,848249,Piedmont Triad International Airport,Greensboro,United States,36.0978012085,-79.9373016357,925.0,-5,19.6721311475,4.0,-2.0,64,6.25,16.5,-7.5,64
81,KS,ICT,P,S,773550,Wichita Mid Continent Airport,Wichita,United States,37.6498985291,-97.4330978394,1333.0,-6,11.7647058824,5.0,-9.0,51,0.0,17.0,-5.0,52
82,CA,FAT,P,S,695008,Fresno Yosemite International Airport,Fresno,United States,36.7761993408,-119.718002319,336.0,-8,19.1176470588,4.0,-5.0,205,0.487804878049,13.0,-2.0,205
83,CO,COS,P,S,593246,City of Colorado Springs Municipal Airport,Colorado Springs,United States,38.8058013916,-104.700996399,6187.0,-7,21.5384615385,6.0,-4.0,261,0.383141762452,16.0,-4.0,261
84,PA,MDT,P,S,587049,Harrisburg International Airport,Harrisburg,United States,40.1935005188,-76.7633972168,310.0,-5,28.9855072464,6.0,3.0,72,5.55555555556,19.0,-3.0,72
85,TX,LBB,P,S,443239,Lubbock Preston Smith International Airport,Lubbock,United States,33.6636009216,-101.822998047,3282.0,-6,15.8536585366,4.0,-2.5,83,2.40963855422,15.0,-7.0,83
86,TX,MFE,P,N,391687,Mc Allen Miller International Airport,Mcallen,United States,26.17580032,-98.23860168,107.0,-6,13.0841121495,4.0,-7.0,215,0.93023255814,11.0,-6.0,215
87,NC,ILM,P,N,388023,Wilmington International Airport,Wilmington,United States,34.2705993652,-77.9026031494,32.0,-5,18.085106383,4.0,-4.0,192,3.10880829016,13.0,-5.0,193
88,TX,AMA,P,N,341132,Rick Husband Amarillo International Airport,Amarillo,United States,35.2193984985,-101.706001282,3607.0,-6,14.2857142857,5.5,1.5,14,0.0,15.0,-6.0,15
89,TX,CRP,P,N,338312,Corpus Christi International Airport,Corpus Christi,United States,27.7703990936,-97.5011978149,44.0,-6,18.1818181818,5.0,-1.0,11,0.0,12.5,-6.0,12
90,WY,JAC,P,N,313151,Jackson Hole Airport,Jacksn Hole,United States,43.6072998047,-110.737998962,6451.0,-7,23.1578947368,4.0,-4.0,195,0.515463917526,25.0,-8.0,194
91,FL,DAB,P,N,306360,Daytona Beach International Airport,Daytona Beach,United States,29.179899,-81.058098,34.0,-5,25.0,3.0,-13.5,4,0.0,26.0,-0.5,4
92,CO,EGE,P,N,156937,Eagle County Regional Airport,Vail,United States,39.64260101,-106.9179993,6548.0,-7,21.6730038023,5.0,-4.0,545,2.38532110092,13.0,-5.0,545
93,CO,MTJ,P,N,102756,Montrose Regional Airport,Montrose CO,United States,38.5097999573,-107.893997192,5759.0,-7,16.8539325843,5.0,-5.0,89,0.0,14.0,-4.0,89
